,City,Country,Date,Lat,Lng,Max Temp,Humidity,Cloudiness,Wind Speed,Current Description,Rain Inches,Snow Inches
0,Busselton,AU,2020-05-07 16:39:46,-33.65,115.33,57.0,98,54,11.54,light rain,0.23,0.0
1,Hermanus,ZA,2020-05-07 16:39:46,-34.42,19.23,63.0,88,100,3.83,overcast clouds,0.0,0.0
2,Kodiak,US,2020-05-07 16:39:46,57.79,-152.41,44.6,81,90,29.97,light rain,0.25,0.0
3,Lata,PT,2020-05-07 16:39:46,40.16,-8.33,77.0,61,39,5.99,scattered clouds,0.0,0.0
4,Mar Del Plata,AR,2020-05-07 16:36:30,-38.0,-57.56,62.01,59,0,12.75,clear sky,0.0,0.0
5,Khatanga,RU,2020-05-07 16:39:46,71.97,102.5,3.6,92,34,10.85,scattered clouds,0.0,0.0
6,Hashtrud,IR,2020-05-07 16:39:47,37.48,47.05,49.62,67,6,18.5,clear sky,0.0,0.0
7,Praia,CV,2020-05-07 16:36:47,14.92,-23.51,82.4,54,20,21.92,few clouds,0.0,0.0
8,Potosi,BO,2020-05-07 16:39:47,-19.58,-65.75,53.51,33,100,0.69,overcast clouds,0.0,0.0
9,Ponta Do Sol,PT,2020-05-07 16:39:47,32.67,-17.1,66.2,72,75,3.36,broken clouds,0.0,0.0
10,Mackay,AU,2020-05-07 16:35:06,-21.15,149.2,66.2,88,11,5.82,few clouds,0.0,0.0
11,Itoman,JP,2020-05-07 16:39:47,26.12,127.67,75.2,78,75,12.75,broken clouds,0.0,0.0
12,Ribeira Grande,PT,2020-05-07 16:39:47,38.52,-28.7,64.4,77,40,13.87,scattered clouds,0.0,0.0
13,Ushuaia,AR,2020-05-07 16:35:32,-54.8,-68.3,44.6,70,100,4.7,overcast clouds,0.0,0.0
14,Yima,CN,2020-05-07 16:39:48,34.74,111.88,62.01,1,100,4.36,moderate rain,1.91,0.0
15,Tual,ID,2020-05-07 16:39:48,-5.67,132.75,83.14,79,7,19.82,clear sky,0.0,0.0
16,Roznava,SK,2020-05-07 16:39:48,48.66,20.54,57.2,43,20,6.93,few clouds,0.0,0.0
17,Ulladulla,AU,2020-05-07 16:39:48,-35.35,150.47,59.0,72,33,5.82,scattered clouds,0.0,0.0
18,Bambous Virieux,MU,2020-05-07 16:39:48,-20.34,57.76,75.2,88,40,3.36,scattered clouds,0.0,0.0
19,Las Palmas,ES,2020-05-07 16:39:48,28.42,-14.01,71.6,68,40,17.22,scattered clouds,0.0,0.0
20,Kruisfontein,ZA,2020-05-07 16:39:48,-34.0,24.73,62.64,71,100,0.74,overcast clouds,0.0,0.0
21,Sanchazi,CN,2020-05-07 16:39:48,42.08,126.6,51.51,65,61,3.76,broken clouds,0.0,0.0
22,Avarua,CK,2020-05-07 16:39:49,-21.21,-159.78,71.6,100,46,2.24,scattered clouds,0.0,0.0
23,Hilo,US,2020-05-07 16:38:41,19.73,-155.09,69.8,83,40,3.36,scattered clouds,0.0,0.0
24,Cabo San Lucas,MX,2020-05-07 16:39:49,22.89,-109.91,82.0,60,5,5.82,clear sky,0.0,0.0
25,San Benito,GT,2020-05-07 16:39:49,16.91,-89.91,95.43,38,59,2.75,broken clouds,0.0,0.0
26,Ancud,CL,2020-05-07 16:39:49,-41.87,-73.82,59.0,82,100,5.82,overcast clouds,0.0,0.0
27,Maarianhamina,AX,2020-05-07 16:37:49,60.1,19.93,50.0,43,1,5.82,clear sky,0.0,0.0
28,Vaini,TO,2020-05-07 16:39:49,-21.2,-175.2,77.0,94,75,8.05,broken clouds,0.0,0.0
29,Teguise,ES,2020-05-07 16:39:49,29.06,-13.56,75.2,47,20,21.92,few clouds,0.0,0.0
30,Kudahuvadhoo,MV,2020-05-07 16:39:50,2.67,72.89,85.14,75,0,12.93,clear sky,0.0,0.0
31,Jumla,NP,2020-05-07 16:39:50,29.27,82.18,43.45,63,82,3.27,broken clouds,0.0,0.0
32,Barrow,US,2020-05-07 16:39:50,71.29,-156.79,1.4,91,90,12.75,fog,0.0,0.0
33,Port Elizabeth,ZA,2020-05-07 16:39:50,-33.92,25.57,66.2,88,100,10.29,overcast clouds,0.0,0.0
34,Chokurdakh,RU,2020-05-07 16:39:50,70.63,147.92,27.82,96,98,5.39,overcast clouds,0.0,0.0
35,Terrace,CA,2020-05-07 16:37:11,54.52,-128.6,44.6,70,75,2.24,broken clouds,0.0,0.0
36,Husainabad,IN,2020-05-07 16:39:51,24.53,84.02,87.96,18,0,2.93,clear sky,0.0,0.0
37,Rikitea,PF,2020-05-07 16:39:51,-23.12,-134.97,74.89,77,47,16.53,light rain,0.19,0.0
38,Champerico,GT,2020-05-07 16:39:51,14.3,-91.92,87.8,66,40,6.93,haze,0.0,0.0
39,Coquimbo,CL,2020-05-07 16:39:51,-29.95,-71.34,55.4,87,90,8.05,overcast clouds,0.0,0.0
40,Bengkulu,ID,2020-05-07 16:39:51,-3.8,102.27,78.91,86,100,4.38,light rain,0.14,0.0
41,Sidi Ali,DZ,2020-05-07 16:39:51,36.1,0.42,76.93,50,100,14.2,overcast clouds,0.0,0.0
42,Longyearbyen,SJ,2020-05-07 16:39:51,78.22,15.64,32.0,94,40,5.82,scattered clouds,0.0,0.0
43,Pisco,PE,2020-05-07 16:39:51,-13.7,-76.22,72.0,83,100,5.82,overcast clouds,0.0,0.0
44,Taoudenni,ML,2020-05-07 16:39:52,22.68,-3.98,110.23,9,89,9.95,overcast clouds,0.0,0.0
45,Bairiki,KI,2020-05-07 16:39:52,1.33,172.98,77.0,100,40,1.12,scattered clouds,0.0,0.0
46,Torbay,CA,2020-05-07 16:39:52,47.67,-52.73,50.0,73,40,19.46,scattered clouds,0.0,0.0
47,Thompson,CA,2020-05-07 16:37:03,55.74,-97.86,21.2,79,90,9.17,light snow,0.0,0.0
48,Pangkalanbuun,ID,2020-05-07 16:39:52,-2.68,111.62,77.43,94,81,2.21,broken clouds,0.0,0.0
49,Jimo,CN,2020-05-07 16:36:05,36.39,120.46,64.4,52,99,15.66,overcast clouds,0.0,0.0
50,Nador,MA,2020-05-07 16:39:52,35.17,-2.93,69.8,73,90,4.7,overcast clouds,0.0,0.0
51,Ilo,PE,2020-05-07 16:39:52,-17.64,-71.34,70.66,69,93,7.2,overcast clouds,0.0,0.0
52,Port Alfred,ZA,2020-05-07 16:39:52,-33.59,26.89,64.99,91,100,15.88,overcast clouds,0.0,0.0
53,Wolow,PL,2020-05-07 16:39:53,51.34,16.64,55.4,54,75,11.41,broken clouds,0.0,0.0
54,San Quintin,MX,2020-05-07 16:39:53,30.48,-115.95,74.68,46,8,5.75,clear sky,0.0,0.0
55,Tuktoyaktuk,CA,2020-05-07 16:39:53,69.45,-133.04,14.0,92,90,5.82,mist,0.0,0.0
56,Makakilo City,US,2020-05-07 16:39:53,21.35,-158.09,71.6,78,1,3.36,clear sky,0.0,0.0
57,Ostrovnoy,RU,2020-05-07 16:39:53,68.05,39.51,35.15,93,81,12.35,broken clouds,0.0,0.0
58,Arman,RU,2020-05-07 16:39:53,59.7,150.17,32.34,90,100,6.82,overcast clouds,0.0,0.0
59,Provideniya,RU,2020-05-07 16:39:53,64.38,-173.3,30.24,89,82,8.86,broken clouds,0.0,0.0
60,Qaanaaq,GL,2020-05-07 16:39:53,77.48,-69.36,16.09,88,100,4.74,overcast clouds,0.0,0.0
61,Mataura,NZ,2020-05-07 16:39:53,-46.19,168.86,50.2,86,99,7.23,overcast clouds,0.0,0.0
62,Roma,US,2020-05-07 16:34:54,43.21,-75.46,57.99,41,1,8.05,clear sky,0.0,0.0
63,Merauke,ID,2020-05-07 16:39:54,-8.47,140.33,78.1,82,94,12.88,overcast clouds,0.0,0.0
64,Bluff,NZ,2020-05-07 16:39:54,-46.6,168.33,51.1,78,85,19.33,overcast clouds,0.0,0.0
65,Albany,US,2020-05-07 16:35:57,42.6,-73.97,63.0,12,4,5.01,clear sky,0.0,0.0
66,Hithadhoo,MV,2020-05-07 16:39:54,-0.6,73.08,84.51,77,36,15.1,moderate rain,1.35,0.0
67,Lampa,CL,2020-05-07 16:39:54,-33.28,-70.9,84.99,17,1,4.7,clear sky,0.0,0.0
68,Dikson,RU,2020-05-07 16:39:54,73.51,80.55,8.44,93,100,8.14,overcast clouds,0.0,0.0
69,Mount Gambier,AU,2020-05-07 16:36:47,-37.83,140.77,51.8,100,53,9.17,broken clouds,0.0,0.0
70,Los Llanos De Aridane,ES,2020-05-07 16:39:54,28.66,-17.92,69.8,68,75,10.29,broken clouds,0.0,0.0
71,Hualmay,PE,2020-05-07 16:39:55,-11.1,-77.61,74.8,63,100,9.6,overcast clouds,0.0,0.0
72,Kropotkin,RU,2020-05-07 16:39:55,45.44,40.58,57.15,91,100,5.86,overcast clouds,0.0,0.0
73,Celestun,MX,2020-05-07 16:39:55,20.87,-90.4,85.03,58,27,17.13,scattered clouds,0.0,0.0
74,Mogadishu,SO,2020-05-07 16:39:55,2.04,45.34,83.25,78,82,11.61,broken clouds,0.0,0.0
75,Saryg-Sep,RU,2020-05-07 16:39:55,51.5,95.6,45.01,78,95,8.77,overcast clouds,0.0,0.0
76,Bagrami,AF,2020-05-07 16:39:55,34.49,69.27,66.2,48,90,16.11,light rain,0.0,0.0
77,Tigil,RU,2020-05-07 16:39:55,57.8,158.67,29.97,99,93,4.99,light snow,0.0,0.14
78,Lompoc,US,2020-05-07 16:39:47,34.64,-120.46,77.0,20,1,9.17,clear sky,0.0,0.0
79,Santa Rosa,PH,2020-05-07 16:39:56,14.31,121.11,87.8,70,75,9.17,broken clouds,0.0,0.0
80,Husavik,IS,2020-05-07 16:39:56,66.04,-17.34,37.4,74,90,11.41,overcast clouds,0.0,0.0
81,Nioro,GM,2020-05-07 16:39:56,13.35,-15.75,108.41,7,27,7.67,scattered clouds,0.0,0.0
82,Tuensang,IN,2020-05-07 16:39:56,26.28,94.83,64.11,79,1,1.57,clear sky,0.0,0.0
83,Pangnirtung,CA,2020-05-07 16:39:56,66.15,-65.71,19.4,79,20,3.11,few clouds,0.0,0.0
84,Jaru,BR,2020-05-07 16:39:56,-10.44,-62.47,72.86,87,99,8.61,overcast clouds,0.0,0.0
85,Puerto Narino,CO,2020-05-07 16:39:56,-3.77,-70.38,87.8,79,75,6.93,broken clouds,0.0,0.0
86,Atuona,PF,2020-05-07 16:39:57,-9.8,-139.03,80.46,79,85,19.1,overcast clouds,0.0,0.0
87,Sur,OM,2020-05-07 16:39:57,22.57,59.53,92.48,40,0,4.7,clear sky,0.0,0.0
88,Jamestown,US,2020-05-07 16:36:30,42.1,-79.24,55.0,34,90,12.75,overcast clouds,0.0,0.0
89,New Norfolk,AU,2020-05-07 16:39:57,-42.78,147.06,52.0,82,34,2.84,scattered clouds,0.0,0.0
90,Airai,TL,2020-05-07 16:39:57,-8.93,125.41,57.02,100,8,3.56,clear sky,0.0,0.0
91,Namibe,AO,2020-05-07 16:39:57,-15.2,12.15,104.0,33,20,14.99,few clouds,0.0,0.0
92,Abnub,EG,2020-05-07 16:39:57,27.27,31.15,87.8,23,0,13.87,clear sky,0.0,0.0
93,Clyde River,CA,2020-05-07 16:39:57,70.47,-68.59,15.8,78,5,3.36,clear sky,0.0,0.0
94,Vila,PT,2020-05-07 16:39:58,42.03,-8.16,78.01,64,91,10.29,light rain,0.23,0.0
95,Punta Arenas,CL,2020-05-07 16:39:58,-53.15,-70.92,46.4,87,75,13.87,light rain,0.0,0.0
96,Lebu,CL,2020-05-07 16:39:58,-37.62,-73.65,62.71,64,100,10.65,overcast clouds,0.0,0.0
97,Long Beach,US,2020-05-07 16:38:13,33.77,-118.19,80.01,60,1,3.53,clear sky,0.0,0.0
98,Iqaluit,CA,2020-05-07 16:39:58,63.75,-68.51,28.4,58,75,13.87,broken clouds,0.0,0.0
99,Yellowknife,CA,2020-05-07 16:39:58,62.46,-114.35,44.6,52,40,11.41,scattered clouds,0.0,0.0
100,Lensk,RU,2020-05-07 16:39:58,60.73,114.93,31.71,96,93,4.41,overcast clouds,0.0,0.0
101,Beringovskiy,RU,2020-05-07 16:39:58,63.05,179.32,30.38,99,100,10.69,light snow,0.0,0.29
102,Rocha,UY,2020-05-07 16:39:58,-34.48,-54.33,58.39,62,100,8.19,overcast clouds,0.0,0.0
103,Biak,ID,2020-05-07 16:39:59,-0.91,122.88,78.73,83,18,1.07,light rain,0.47,0.0
104,Mahebourg,MU,2020-05-07 16:39:59,-20.41,57.7,75.2,88,40,3.36,scattered clouds,0.0,0.0
105,Saskylakh,RU,2020-05-07 16:39:59,71.92,114.08,5.04,94,100,6.06,overcast clouds,0.0,0.0
106,Saint-Louis,SN,2020-05-07 16:39:59,16.33,-15.0,111.2,11,0,2.24,clear sky,0.0,0.0
107,Korla,CN,2020-05-07 16:39:04,41.76,86.15,59.0,42,34,8.01,scattered clouds,0.0,0.0
108,Taltal,CL,2020-05-07 16:39:59,-25.4,-70.48,67.86,59,29,3.4,scattered clouds,0.0,0.0
109,Kapaa,US,2020-05-07 16:39:59,22.08,-159.32,69.8,88,75,16.11,moderate rain,1.52,0.0
110,Monte Azul,BR,2020-05-07 16:39:59,-15.15,-42.87,87.46,42,29,3.8,scattered clouds,0.0,0.0
111,Verkhnevilyuysk,RU,2020-05-07 16:39:59,63.45,120.32,23.47,96,100,14.14,snow,0.0,0.52
112,Nanortalik,GL,2020-05-07 16:40:00,60.14,-45.24,41.16,78,61,2.1,broken clouds,0.0,0.0
113,Nikolskoye,RU,2020-05-07 16:40:00,59.7,30.79,54.0,40,96,17.9,overcast clouds,0.0,0.0
114,Aksu,CN,2020-05-07 16:39:04,41.12,80.26,64.92,28,97,1.5,overcast clouds,0.0,0.0
115,Sunrise Manor,US,2020-05-07 16:36:30,36.21,-115.07,82.0,11,1,17.22,clear sky,0.0,0.0
116,Hobart,AU,2020-05-07 16:40:00,-42.88,147.33,55.4,71,40,9.17,scattered clouds,0.0,0.0
117,Chumikan,RU,2020-05-07 16:40:00,54.72,135.31,35.04,86,100,9.91,light rain,0.16,0.0
118,Sao Filipe,CV,2020-05-07 16:40:01,14.9,-24.5,76.82,70,3,18.28,clear sky,0.0,0.0
119,Bredasdorp,ZA,2020-05-07 16:40:01,-34.53,20.04,60.8,87,100,3.36,overcast clouds,0.0,0.0
120,Sayyan,YE,2020-05-07 16:40:01,15.17,44.32,66.7,41,26,11.1,scattered clouds,0.0,0.0
121,Miri,MY,2020-05-07 16:40:01,4.41,114.01,82.4,94,75,4.7,broken clouds,0.0,0.0
122,Leningradskiy,RU,2020-05-07 16:40:01,69.38,178.42,20.39,85,10,2.73,clear sky,0.0,0.0
123,Puerto Ayacucho,VE,2020-05-07 16:40:01,5.66,-67.62,84.2,74,75,5.61,broken clouds,0.0,0.0
124,Noumea,NC,2020-05-07 16:38:56,-22.28,166.46,68.0,88,100,11.41,moderate rain,1.05,0.0
125,Yakeshi,CN,2020-05-07 16:40:01,49.28,120.73,43.7,58,6,9.06,clear sky,0.0,0.0
126,Cape Town,ZA,2020-05-07 16:40:01,-33.93,18.42,63.0,93,75,11.41,broken clouds,0.0,0.0
127,Kindu,CD,2020-05-07 16:40:02,-2.95,25.95,74.41,90,98,4.14,light rain,0.13,0.0
128,Hervey Bay,AU,2020-05-07 16:40:02,-25.3,152.85,63.0,88,35,4.0,scattered clouds,0.0,0.0
129,Asau,RO,2020-05-07 16:40:02,46.43,26.4,52.0,48,97,3.09,light rain,0.41,0.0
130,Gariaband,IN,2020-05-07 16:40:02,20.64,82.06,87.21,25,9,3.6,clear sky,0.0,0.0
131,Erenhot,CN,2020-05-07 16:40:02,43.65,111.98,55.76,39,100,9.57,overcast clouds,0.0,0.0
132,Butaritari,KI,2020-05-07 16:40:02,3.07,172.79,82.85,79,100,8.95,overcast clouds,0.0,0.0
133,Tasiilaq,GL,2020-05-07 16:40:02,65.61,-37.64,44.6,42,40,2.24,scattered clouds,0.0,0.0
134,Fortuna,US,2020-05-07 16:38:52,40.6,-124.16,59.0,87,1,5.5,clear sky,0.0,0.0
135,Pevek,RU,2020-05-07 16:40:03,69.7,170.31,21.47,87,17,8.32,few clouds,0.0,0.0
136,Gagret,IN,2020-05-07 16:40:03,31.67,76.07,78.13,29,5,3.65,clear sky,0.0,0.0
137,San Patricio,MX,2020-05-07 16:40:03,19.22,-104.7,84.2,66,40,6.71,scattered clouds,0.0,0.0
138,Saint-Philippe,RE,2020-05-07 16:40:03,-21.36,55.77,77.0,78,72,3.36,broken clouds,0.0,0.0
139,Bembereke,BJ,2020-05-07 16:40:03,10.23,2.66,96.67,25,2,5.75,clear sky,0.0,0.0
140,Kalmunai,LK,2020-05-07 16:40:03,7.42,81.82,81.12,83,99,10.42,overcast clouds,0.0,0.0
141,Tezu,IN,2020-05-07 16:40:03,27.92,96.17,73.63,52,0,4.68,clear sky,0.0,0.0
142,Hamilton,US,2020-05-07 16:36:43,39.18,-84.53,66.99,48,20,8.05,few clouds,0.0,0.0
143,Amapa,BR,2020-05-07 16:40:04,1.0,-52.0,79.38,95,100,4.03,moderate rain,1.56,0.0
144,Prado,BR,2020-05-07 16:40:04,-17.34,-39.22,83.7,66,28,8.72,scattered clouds,0.0,0.0
145,Yerbogachen,RU,2020-05-07 16:40:04,61.28,108.01,26.98,92,98,7.36,overcast clouds,0.0,0.0
146,Iquique,CL,2020-05-07 16:40:04,-20.22,-70.14,68.0,64,40,6.93,scattered clouds,0.0,0.0
147,Valdivia,CL,2020-05-07 16:37:55,-39.81,-73.25,57.2,76,100,3.36,overcast clouds,0.0,0.0
148,Meulaboh,ID,2020-05-07 16:40:05,4.14,96.13,78.96,89,100,13.49,heavy intensity rain,5.84,0.0
149,Fairhope,US,2020-05-07 16:40:05,30.52,-87.9,70.0,36,1,3.36,clear sky,0.0,0.0
150,Gore,NZ,2020-05-07 16:40:05,-46.1,168.94,49.66,89,98,7.05,overcast clouds,0.0,0.0
151,Ilulissat,GL,2020-05-07 16:35:54,69.22,-51.1,30.2,63,20,13.87,few clouds,0.0,0.0
152,Castro,BR,2020-05-07 16:36:19,-24.79,-50.01,62.37,51,2,4.61,clear sky,0.0,0.0
153,Mayo,US,2020-05-07 16:40:05,38.89,-76.51,63.0,44,1,10.2,clear sky,0.0,0.0
154,Morondava,MG,2020-05-07 16:40:05,-20.28,44.28,78.87,67,0,17.31,clear sky,0.0,0.0
155,Eyl,SO,2020-05-07 16:40:05,7.98,49.82,84.99,68,69,8.46,broken clouds,0.0,0.0
156,Aljezur,PT,2020-05-07 16:40:06,37.32,-8.8,70.0,84,0,6.69,clear sky,0.0,0.0
157,Abu Kamal,SY,2020-05-07 16:40:06,34.45,40.92,76.93,29,0,6.08,clear sky,0.0,0.0
158,Bethel,US,2020-05-07 16:40:06,41.37,-73.41,61.0,26,2,3.0,clear sky,0.0,0.0
159,East London,ZA,2020-05-07 16:40:06,-33.02,27.91,68.68,81,82,14.34,broken clouds,0.0,0.0
160,Chapais,CA,2020-05-07 16:40:06,49.78,-74.85,32.0,91,90,6.93,overcast clouds,0.0,0.0
161,Saint-Joseph,RE,2020-05-07 16:40:06,-21.37,55.62,77.0,78,68,3.36,broken clouds,0.0,0.0
162,Souillac,MU,2020-05-07 16:40:06,-20.52,57.52,75.2,88,40,3.36,scattered clouds,0.0,0.0
163,Moroni,KM,2020-05-07 16:40:07,-11.7,43.26,80.08,80,21,14.58,few clouds,0.0,0.0
164,Qinhuangdao,CN,2020-05-07 16:40:07,39.93,119.59,54.09,86,100,3.15,moderate rain,1.12,0.0
165,Upernavik,GL,2020-05-07 16:40:07,72.79,-56.15,19.38,91,92,6.89,overcast clouds,0.0,0.0
166,Upington,ZA,2020-05-07 16:40:07,-28.45,21.26,78.8,13,0,2.24,clear sky,0.0,0.0
167,Lehigh Acres,US,2020-05-07 16:40:07,26.63,-81.62,82.4,27,1,9.17,clear sky,0.0,0.0
168,Yar-Sale,RU,2020-05-07 16:40:07,66.83,70.83,38.77,99,100,10.8,overcast clouds,0.0,0.0
169,Marawi,PH,2020-05-07 16:40:07,8.0,124.29,80.01,85,46,5.99,scattered clouds,0.0,0.0
170,Polunochnoye,RU,2020-05-07 16:40:07,60.87,60.42,58.6,59,88,6.51,overcast clouds,0.0,0.0
171,Kabanjahe,ID,2020-05-07 16:40:08,3.1,98.49,77.0,100,75,4.7,light rain,0.0,0.0
172,Rapid Valley,US,2020-05-07 16:40:08,44.06,-103.15,55.0,46,1,28.86,clear sky,0.0,0.0
173,Erzin,TR,2020-05-07 16:40:08,36.96,36.2,66.0,79,9,1.99,clear sky,0.0,0.0
174,Norman Wells,CA,2020-05-07 16:40:08,65.28,-126.83,33.8,74,20,10.29,few clouds,0.0,0.0
175,Guerrero Negro,MX,2020-05-07 16:40:08,27.98,-114.06,77.74,38,0,7.7,clear sky,0.0,0.0
176,Praia Da Vitoria,PT,2020-05-07 16:40:08,38.73,-27.07,66.2,77,75,16.78,broken clouds,0.0,0.0
177,Miyako,JP,2020-05-07 16:40:09,39.64,141.95,43.95,71,0,4.7,clear sky,0.0,0.0
178,Kloulklubed,PW,2020-05-07 16:40:09,7.04,134.26,78.8,94,75,5.82,broken clouds,0.0,0.0
179,Barcelos,PT,2020-05-07 16:36:21,41.54,-8.62,78.01,72,87,8.05,overcast clouds,0.0,0.0
180,Sitka,US,2020-05-07 16:40:09,57.05,-135.33,51.8,53,20,12.75,few clouds,0.0,0.0
181,Acarau,BR,2020-05-07 16:40:09,-2.89,-40.12,85.57,71,38,11.23,scattered clouds,0.0,0.0
182,Posse,BR,2020-05-07 16:40:09,-14.09,-46.37,80.96,60,83,5.12,light rain,0.29,0.0
183,Linhares,BR,2020-05-07 16:40:09,-19.39,-40.07,77.32,68,98,13.98,overcast clouds,0.0,0.0
184,Strand,ZA,2020-05-07 16:40:10,-34.11,18.83,63.0,93,75,11.41,broken clouds,0.0,0.0
185,Skibbereen,IE,2020-05-07 16:40:10,51.55,-9.27,57.2,76,75,11.41,broken clouds,0.0,0.0
186,Marfino,RU,2020-05-07 16:40:10,55.7,37.38,59.0,82,99,6.71,overcast clouds,0.0,0.0
187,Baiyin,CN,2020-05-07 16:40:10,36.56,104.21,44.6,70,100,4.47,overcast clouds,0.0,0.0
188,Puerto Ayora,EC,2020-05-07 16:40:10,-0.74,-90.35,80.01,83,40,13.87,scattered clouds,0.0,0.0
189,Ulaanbaatar,MN,2020-05-07 16:40:10,47.91,106.88,39.2,32,0,4.12,clear sky,0.0,0.0
190,Katsuura,JP,2020-05-07 16:40:10,35.13,140.3,59.0,67,40,2.24,scattered clouds,0.0,0.0
191,Gandajika,CD,2020-05-07 16:40:10,-6.75,23.95,73.18,85,47,2.37,scattered clouds,0.0,0.0
192,Talavera De La Reina,ES,2020-05-07 16:35:25,39.96,-4.83,83.21,37,100,5.86,overcast clouds,0.0,0.0
193,Paamiut,GL,2020-05-07 16:40:11,61.99,-49.67,38.79,81,52,4.99,broken clouds,0.0,0.0
194,Pampa,US,2020-05-07 16:38:55,35.54,-100.96,69.8,43,1,27.51,clear sky,0.0,0.0
195,Georgetown,MY,2020-05-07 16:38:23,5.41,100.34,84.2,94,40,1.12,scattered clouds,0.0,0.0
196,Kavieng,PG,2020-05-07 16:40:11,-2.57,150.8,82.44,75,11,7.81,few clouds,0.0,0.0
197,Victoria,HK,2020-05-07 16:37:13,22.29,114.16,84.0,84,87,9.98,overcast clouds,0.0,0.0
198,Chahal,GT,2020-05-07 16:40:11,15.75,-89.57,82.67,76,35,2.48,moderate rain,1.04,0.0
199,Marzuq,YE,2020-05-07 16:40:11,14.4,46.47,78.73,50,93,9.33,overcast clouds,0.0,0.0
200,Komsomolskiy,UZ,2020-05-07 16:40:11,40.43,71.72,71.6,40,100,6.93,overcast clouds,0.0,0.0
201,Tuatapere,NZ,2020-05-07 16:40:11,-46.13,167.68,51.55,86,91,7.23,overcast clouds,0.0,0.0
202,Vikhorevka,RU,2020-05-07 16:40:12,56.12,101.16,37.4,93,86,6.71,light rain,0.4,0.0
203,Te Anau,NZ,2020-05-07 16:40:12,-45.42,167.72,50.45,88,93,4.54,light rain,0.13,0.0
204,Chibombo,ZM,2020-05-07 16:40:12,-14.66,28.07,64.67,45,95,6.82,overcast clouds,0.0,0.0
205,Gaya,IN,2020-05-07 16:40:12,24.78,85.0,75.2,73,0,3.36,haze,0.0,0.0
206,Sechura,PE,2020-05-07 16:40:12,-5.56,-80.82,82.31,52,0,7.23,clear sky,0.0,0.0
207,Ixtapa,MX,2020-05-07 16:40:12,20.7,-105.2,82.4,69,75,4.7,broken clouds,0.0,0.0
208,Camacha,PT,2020-05-07 16:40:12,33.08,-16.33,69.8,60,20,10.29,few clouds,0.0,0.0
209,Montepuez,MZ,2020-05-07 16:40:13,-13.13,39.0,69.22,82,37,6.29,scattered clouds,0.0,0.0
210,Pozo Colorado,PY,2020-05-07 16:40:13,-23.49,-58.8,71.29,25,0,6.64,clear sky,0.0,0.0
211,Saldanha,ZA,2020-05-07 16:40:13,-33.01,17.94,64.76,81,100,14.7,overcast clouds,0.0,0.0
212,Lasa,IT,2020-05-07 16:40:13,46.62,10.7,64.4,31,5,3.36,clear sky,0.0,0.0
213,Cherskiy,RU,2020-05-07 16:40:13,68.75,161.3,25.63,92,96,3.47,overcast clouds,0.0,0.0
214,Marsh Harbour,BS,2020-05-07 16:40:13,26.54,-77.06,76.93,74,27,22.82,scattered clouds,0.0,0.0
215,Ust-Omchug,RU,2020-05-07 16:40:13,61.15,149.63,16.88,92,100,1.81,overcast clouds,0.0,0.0
216,Georgiyevskoye,RU,2020-05-07 16:40:13,58.73,45.02,59.59,84,73,8.61,light rain,0.44,0.0
217,Novikovo,RU,2020-05-07 16:40:13,51.15,37.89,55.31,63,80,3.4,broken clouds,0.0,0.0
218,Chuy,UY,2020-05-07 16:40:14,-33.7,-53.46,60.24,57,98,6.73,overcast clouds,0.0,0.0
219,Antalaha,MG,2020-05-07 16:40:14,-14.9,50.28,76.15,85,11,7.07,few clouds,0.0,0.0
220,Tiksi,RU,2020-05-07 16:40:14,71.69,128.87,11.26,96,100,10.31,overcast clouds,0.0,0.0
221,Mareeba,AU,2020-05-07 16:40:14,-17.0,145.43,71.6,83,43,10.29,light rain,0.15,0.0
222,Talnakh,RU,2020-05-07 16:40:14,69.49,88.4,23.0,79,84,6.71,broken clouds,0.0,0.0
223,Saint-Denis,FR,2020-05-07 16:40:14,48.92,2.33,71.6,28,100,6.93,overcast clouds,0.0,0.0
224,Ahipara,NZ,2020-05-07 16:40:14,-35.17,173.17,57.33,80,34,5.14,scattered clouds,0.0,0.0
225,Kedougou,SN,2020-05-07 16:40:15,12.56,-12.17,104.52,19,71,3.38,broken clouds,0.0,0.0
226,Geraldton,AU,2020-05-07 16:40:15,-28.77,114.6,57.2,87,40,4.7,scattered clouds,0.0,0.0
227,Lagunas,PE,2020-05-07 16:40:15,-5.23,-75.68,80.96,92,99,3.36,moderate rain,2.15,0.0
228,Hirara,JP,2020-05-07 16:40:15,24.8,125.28,75.13,83,9,12.46,clear sky,0.0,0.0
229,Gambela,ET,2020-05-07 16:40:15,8.25,34.58,79.16,75,52,2.71,light rain,0.75,0.0
230,Huilong,CN,2020-05-07 16:39:36,31.81,121.66,68.0,91,100,3.0,overcast clouds,0.0,0.0
231,Egvekinot,RU,2020-05-07 16:40:15,66.32,-179.17,18.39,83,0,0.27,clear sky,0.0,0.0
232,Kargasok,RU,2020-05-07 16:40:15,59.06,80.86,47.52,59,68,5.06,broken clouds,0.0,0.0
233,Seymchan,RU,2020-05-07 16:40:16,62.88,152.43,22.1,94,100,3.71,overcast clouds,0.0,0.0
234,Codrington,AU,2020-05-07 16:40:16,-38.27,141.97,53.06,91,39,9.57,scattered clouds,0.0,0.0
235,Kostrzyn,PL,2020-05-07 16:40:16,52.4,17.23,59.0,44,20,12.75,few clouds,0.0,0.0
236,Hovd,MN,2020-05-07 16:40:16,48.01,91.64,48.79,41,2,3.65,clear sky,0.0,0.0
237,Kachug,RU,2020-05-07 16:40:16,53.96,105.88,41.97,78,93,6.51,overcast clouds,0.0,0.0
238,Grand Gaube,MU,2020-05-07 16:40:16,-20.01,57.66,75.0,92,12,1.01,heavy intensity rain,12.7,0.0
239,Nucet,RO,2020-05-07 16:40:17,44.78,25.55,63.0,45,94,5.82,overcast clouds,0.0,0.0
240,Prince George,CA,2020-05-07 16:40:17,53.92,-122.75,48.0,75,90,6.93,overcast clouds,0.0,0.0
241,Tura,IN,2020-05-07 16:40:17,25.52,90.22,76.28,44,0,3.8,clear sky,0.0,0.0
242,Severo-Kurilsk,RU,2020-05-07 16:40:17,50.68,156.12,33.84,91,100,8.39,overcast clouds,0.0,0.0
243,Kijang,KR,2020-05-07 16:40:17,35.24,129.21,55.4,71,73,10.29,broken clouds,0.0,0.0
244,Kuching,MY,2020-05-07 16:40:17,1.55,110.33,80.6,94,40,1.12,scattered clouds,0.0,0.0
245,Kaitangata,NZ,2020-05-07 16:40:17,-46.28,169.85,53.01,69,67,18.99,broken clouds,0.0,0.0
246,West Monroe,US,2020-05-07 16:40:18,32.52,-92.15,71.6,37,1,6.93,clear sky,0.0,0.0
247,Gbarnga,LR,2020-05-07 16:40:18,7.0,-9.47,85.03,67,88,2.17,overcast clouds,0.0,0.0
248,Havelock,US,2020-05-07 16:38:45,34.88,-76.9,62.01,48,20,13.87,few clouds,0.0,0.0
249,Surt,LY,2020-05-07 16:38:19,31.21,16.59,69.48,80,32,16.58,scattered clouds,0.0,0.0
250,Rafraf,TN,2020-05-07 16:40:18,37.19,10.18,69.8,60,20,12.75,few clouds,0.0,0.0
251,Havoysund,NO,2020-05-07 16:40:18,71.0,24.66,37.4,86,75,11.41,light rain,0.0,0.0
252,Akureyri,IS,2020-05-07 16:40:18,65.68,-18.09,37.4,74,90,13.87,overcast clouds,0.0,0.0
253,Ayr,GB,2020-05-07 16:40:18,55.46,-4.63,63.0,63,40,6.93,scattered clouds,0.0,0.0
254,Rio Grande,BR,2020-05-07 16:37:36,-32.03,-52.1,66.2,52,75,11.41,broken clouds,0.0,0.0
255,Khalkhal,IR,2020-05-07 16:40:19,37.62,48.53,47.75,68,66,19.55,broken clouds,0.0,0.0
256,Cairo,EG,2020-05-07 16:39:53,30.06,31.25,86.0,22,0,9.17,clear sky,0.0,0.0
257,Kawalu,ID,2020-05-07 16:40:19,-7.38,108.21,74.89,92,100,1.19,overcast clouds,0.0,0.0
258,Namatanai,PG,2020-05-07 16:40:19,-3.67,152.43,79.34,77,0,4.43,clear sky,0.0,0.0
259,Pizarro,CO,2020-05-07 16:40:19,4.95,-77.37,84.34,72,61,5.73,broken clouds,0.0,0.0
260,Zhangye,CN,2020-05-07 16:40:19,38.93,100.45,45.59,67,96,6.58,overcast clouds,0.0,0.0
261,Khani,GE,2020-05-07 16:40:20,41.96,42.96,68.0,60,40,1.12,scattered clouds,0.0,0.0
262,Riyadh,SA,2020-05-07 16:40:06,24.69,46.72,87.8,16,100,10.29,overcast clouds,0.0,0.0
263,Portland,US,2020-05-07 16:39:04,45.52,-122.68,54.0,61,1,3.36,light rain,0.25,0.0
264,Olafsvik,IS,2020-05-07 16:40:20,64.89,-23.71,43.16,79,98,8.88,overcast clouds,0.0,0.0
265,Sao Felix Do Xingu,BR,2020-05-07 16:40:20,-6.64,-51.99,85.15,75,66,3.87,light rain,0.61,0.0
266,Adrar,MR,2020-05-07 16:40:20,20.5,-10.07,104.9,7,0,1.01,clear sky,0.0,0.0
267,Boda,CF,2020-05-07 16:40:20,4.32,17.47,74.37,90,85,3.13,light rain,0.26,0.0
268,Dolores,AR,2020-05-07 16:40:20,-36.31,-57.68,59.47,49,18,9.69,few clouds,0.0,0.0
269,Narsaq,GL,2020-05-07 16:40:21,60.92,-46.05,45.93,65,13,4.7,few clouds,0.0,0.0
270,Gigmoto,PH,2020-05-07 16:40:21,13.78,124.39,80.62,80,82,3.94,broken clouds,0.0,0.0
271,Tiarei,PF,2020-05-07 16:40:21,-17.53,-149.33,75.2,69,20,4.7,few clouds,0.0,0.0
272,Dubasari,MD,2020-05-07 16:40:21,47.26,29.16,50.0,87,75,12.75,light rain,0.0,0.0
273,Pringsewu,ID,2020-05-07 16:40:21,-5.36,104.97,75.33,93,90,0.98,overcast clouds,0.0,0.0
274,Ereymentau,KZ,2020-05-07 16:40:21,51.62,73.1,55.8,40,40,8.32,scattered clouds,0.0,0.0
275,Priladozhskiy,RU,2020-05-07 16:40:22,59.85,31.48,54.0,40,87,17.9,overcast clouds,0.0,0.0
276,Esperance,AU,2020-05-07 16:40:22,-33.87,121.9,55.4,71,75,13.87,broken clouds,0.0,0.0
277,Sisimiut,GL,2020-05-07 16:40:22,66.94,-53.67,38.25,70,1,9.04,clear sky,0.0,0.0
278,Ouargaye,BF,2020-05-07 16:40:22,11.5,0.06,103.73,14,25,0.83,scattered clouds,0.0,0.0
279,Arraial Do Cabo,BR,2020-05-07 16:38:39,-22.97,-42.03,69.8,83,90,8.05,overcast clouds,0.0,0.0
280,Ust-Kuyga,RU,2020-05-07 16:40:22,70.02,135.6,16.65,96,96,7.65,light snow,0.0,0.12
281,Campoverde,PE,2020-05-07 16:40:22,-8.48,-74.81,75.2,94,90,12.75,mist,0.0,0.0
282,Shelburne,CA,2020-05-07 16:40:22,44.08,-80.2,42.01,86,90,9.17,light rain,0.0,0.0
283,Zaysan,KZ,2020-05-07 16:40:22,47.47,84.87,51.48,41,0,2.24,clear sky,0.0,0.0
284,Urubicha,BO,2020-05-07 16:40:23,-15.38,-62.95,71.65,34,99,4.99,overcast clouds,0.0,0.0
285,Tarragona,ES,2020-05-07 16:40:23,41.13,1.25,71.6,56,100,5.82,overcast clouds,0.0,0.0
286,Carauari,BR,2020-05-07 16:40:23,-4.88,-66.9,82.6,80,100,4.92,moderate rain,1.05,0.0
287,Salalah,OM,2020-05-07 16:40:23,17.02,54.09,84.2,83,20,8.05,few clouds,0.0,0.0
288,Belsand,IN,2020-05-07 16:40:23,26.45,85.4,83.77,35,48,12.82,scattered clouds,0.0,0.0
289,Deputatskiy,RU,2020-05-07 16:40:23,69.3,139.9,20.77,99,100,3.58,overcast clouds,0.0,0.0
290,Kieta,PG,2020-05-07 16:40:23,-6.22,155.63,79.07,77,20,1.03,few clouds,0.0,0.0
291,Krasnoselkup,RU,2020-05-07 16:40:24,65.7,82.47,29.59,97,100,7.11,overcast clouds,0.0,0.0
292,Saint George,US,2020-05-07 16:37:52,37.1,-113.58,73.99,22,1,3.89,clear sky,0.0,0.0
293,San Vicente,AR,2020-05-07 16:40:24,-26.62,-54.13,62.33,39,0,4.9,clear sky,0.0,0.0
294,Soyo,AO,2020-05-07 16:40:24,-6.13,12.37,80.85,85,80,7.81,broken clouds,0.0,0.0
295,Vestmannaeyjar,IS,2020-05-07 16:40:24,63.44,-20.27,46.4,70,16,18.34,few clouds,0.0,0.0
296,Natchez,US,2020-05-07 16:40:24,31.56,-91.4,69.8,40,1,8.05,clear sky,0.0,0.0
297,Omboue,GA,2020-05-07 16:40:24,-1.57,9.26,81.46,83,95,6.62,overcast clouds,0.0,0.0
298,Nova Granada,BR,2020-05-07 16:40:25,-20.53,-49.31,71.6,56,90,4.7,overcast clouds,0.0,0.0
299,Zhezkazgan,KZ,2020-05-07 16:40:25,47.8,67.71,62.15,35,0,16.91,clear sky,0.0,0.0
300,Labuhan,ID,2020-05-07 16:40:25,-6.88,112.21,79.12,86,21,7.0,few clouds,0.0,0.0
301,Lazaro Cardenas,MX,2020-05-07 16:40:25,17.96,-102.2,88.09,37,0,7.18,clear sky,0.0,0.0
302,Ketchikan,US,2020-05-07 16:40:25,55.34,-131.65,50.0,66,1,12.75,clear sky,0.0,0.0
303,Gat,IL,2020-05-07 16:38:02,31.61,34.76,73.0,61,0,9.48,clear sky,0.0,0.0
304,Puerto Madero,MX,2020-05-07 16:40:25,14.72,-92.42,91.4,63,5,4.7,clear sky,0.0,0.0
305,Aklavik,CA,2020-05-07 16:40:25,68.22,-135.01,21.2,92,75,11.41,broken clouds,0.0,0.0
306,Aykhal,RU,2020-05-07 16:40:26,66.0,111.5,15.8,66,100,11.18,overcast clouds,0.0,0.0
307,Cidreira,BR,2020-05-07 16:40:26,-30.18,-50.21,62.73,72,67,13.8,broken clouds,0.0,0.0
308,Touros,BR,2020-05-07 16:40:26,-5.2,-35.46,87.8,58,40,13.87,scattered clouds,0.0,0.0
309,Carnarvon,AU,2020-05-07 16:40:26,-24.87,113.63,65.91,59,0,22.28,clear sky,0.0,0.0
310,Pasinler,TR,2020-05-07 16:40:26,39.98,41.68,53.6,50,40,9.17,scattered clouds,0.0,0.0
311,Springbok,ZA,2020-05-07 16:40:26,-29.66,17.89,65.07,26,68,1.86,broken clouds,0.0,0.0
312,Siguiri,GN,2020-05-07 16:40:26,11.67,-9.5,99.1,24,69,5.88,broken clouds,0.0,0.0
313,Daniel Flores,CR,2020-05-07 16:40:26,9.34,-83.67,81.52,65,91,2.53,light rain,0.91,0.0
314,Kahului,US,2020-05-07 16:40:27,20.89,-156.47,70.0,77,40,4.7,scattered clouds,0.0,0.0
315,Kuryk,KZ,2020-05-07 16:40:27,43.2,51.65,62.82,73,41,7.94,scattered clouds,0.0,0.0
316,Rawson,AR,2020-05-07 16:40:27,-43.3,-65.1,67.62,46,42,6.71,scattered clouds,0.0,0.0
317,Angoche,MZ,2020-05-07 16:40:27,-16.23,39.91,75.47,74,100,12.24,overcast clouds,0.0,0.0
318,Mae Sot,TH,2020-05-07 16:40:27,16.72,98.57,90.0,46,65,0.67,broken clouds,0.0,0.0
319,Toora-Khem,RU,2020-05-07 16:40:27,52.47,96.11,38.8,88,78,4.88,broken clouds,0.0,0.0
320,Baixa Grande,BR,2020-05-07 16:39:27,-11.96,-40.17,84.2,63,91,1.05,overcast clouds,0.0,0.0
321,Pozhva,RU,2020-05-07 16:40:28,59.09,56.08,57.42,52,100,10.07,overcast clouds,0.0,0.0
322,Sencha,UA,2020-05-07 16:40:28,50.25,33.35,50.34,78,40,4.9,scattered clouds,0.0,0.0
323,Tazovskiy,RU,2020-05-07 16:40:28,67.47,78.7,29.62,99,100,11.43,overcast clouds,0.0,0.0
324,Klyuchi,RU,2020-05-07 16:40:28,52.27,79.17,60.01,42,0,2.89,clear sky,0.0,0.0
325,Pandan,PH,2020-05-07 16:40:28,14.05,124.17,80.56,81,58,6.04,broken clouds,0.0,0.0
326,Bratsk,RU,2020-05-07 16:40:28,56.13,101.61,37.4,93,88,6.71,light rain,0.12,0.0
327,Terra Santa,BR,2020-05-07 16:40:28,-2.1,-56.49,85.3,82,80,1.77,moderate rain,2.26,0.0
328,Vilyuysk,RU,2020-05-07 16:40:29,63.76,121.62,22.37,97,100,15.66,snow,0.0,0.89
329,Bogotol,RU,2020-05-07 16:40:29,56.21,89.53,38.93,82,1,7.43,clear sky,0.0,0.0
330,Luau,AO,2020-05-07 16:40:29,-10.71,22.22,70.77,67,57,3.02,broken clouds,0.0,0.0
331,Rundu,NA,2020-05-07 16:40:29,-17.93,19.77,77.0,17,0,11.41,clear sky,0.0,0.0
332,North Bend,US,2020-05-07 16:40:29,43.41,-124.22,57.99,62,1,4.7,clear sky,0.0,0.0
333,Gushikawa,JP,2020-05-07 16:40:29,26.35,127.87,73.4,83,75,17.22,broken clouds,0.0,0.0
334,Manta,EC,2020-05-07 16:40:17,-0.95,-80.73,84.2,79,75,5.82,broken clouds,0.0,0.0
335,Katangli,RU,2020-05-07 16:40:29,51.71,143.23,36.01,84,0,2.73,clear sky,0.0,0.0
336,Grindavik,IS,2020-05-07 16:40:29,63.84,-22.43,44.6,75,75,13.87,broken clouds,0.0,0.0
337,Puerto Carreno,CO,2020-05-07 16:40:30,6.19,-67.49,84.2,74,75,7.2,broken clouds,0.0,0.0
338,Alugan,PH,2020-05-07 16:40:30,12.22,125.48,82.45,81,89,6.42,overcast clouds,0.0,0.0
339,Hobyo,SO,2020-05-07 16:40:30,5.35,48.53,85.33,70,39,11.65,scattered clouds,0.0,0.0
340,Padang,ID,2020-05-07 16:40:30,-0.95,100.35,78.98,84,100,15.86,moderate rain,1.57,0.0
341,Jardim,BR,2020-05-07 16:40:30,-21.48,-56.14,72.1,28,0,6.13,clear sky,0.0,0.0
342,San Jose Iturbide,MX,2020-05-07 16:40:30,21.0,-100.38,70.0,55,75,12.75,broken clouds,0.0,0.0
343,Salvacion,PH,2020-05-07 16:40:30,7.98,126.13,75.15,94,47,0.51,scattered clouds,0.0,0.0
344,Mao,ES,2020-05-07 16:38:26,39.89,4.27,68.0,72,20,16.11,few clouds,0.0,0.0
345,Biltine,TD,2020-05-07 16:40:31,14.53,20.92,97.29,10,48,5.46,scattered clouds,0.0,0.0
346,Hazorasp,UZ,2020-05-07 16:37:57,41.32,61.07,68.0,82,90,18.34,light intensity shower rain,0.0,0.0
347,Ileza,RU,2020-05-07 16:40:31,61.05,43.9,55.27,91,62,6.33,light rain,0.22,0.0
348,Mount Darwin,ZW,2020-05-07 16:40:31,-16.77,31.58,64.76,51,98,6.15,overcast clouds,0.0,0.0
349,Tokonou,GN,2020-05-07 16:40:31,9.65,-9.78,88.9,53,54,5.21,broken clouds,0.0,0.0
350,Puerto Leguizamo,CO,2020-05-07 16:40:31,-0.19,-74.78,79.39,91,86,1.48,moderate rain,1.41,0.0
351,Coihueco,CL,2020-05-07 16:40:31,-36.62,-71.83,62.6,55,56,6.93,broken clouds,0.0,0.0
352,Saint Anthony,US,2020-05-07 16:35:54,45.02,-93.22,55.99,27,1,9.17,clear sky,0.0,0.0
353,Felanitx,ES,2020-05-07 16:40:32,39.47,3.15,77.0,50,100,14.99,overcast clouds,0.0,0.0
354,Talara,PE,2020-05-07 16:40:32,-4.58,-81.27,87.8,52,9,16.11,clear sky,0.0,0.0
355,Moorhead,US,2020-05-07 16:40:32,46.87,-96.77,48.99,49,1,13.87,clear sky,0.0,0.0
356,Yulara,AU,2020-05-07 16:40:32,-25.24,130.99,57.2,41,0,8.05,clear sky,0.0,0.0
357,Kabwe,ZM,2020-05-07 16:40:32,-14.45,28.45,65.34,44,94,8.01,overcast clouds,0.0,0.0
358,Leshukonskoye,RU,2020-05-07 16:40:32,64.9,45.76,38.82,98,100,6.26,overcast clouds,0.0,0.0
359,Florida,US,2020-05-07 16:38:07,28.75,-82.5,75.99,37,1,6.93,clear sky,0.0,0.0
360,Severo-Yeniseyskiy,RU,2020-05-07 16:40:33,60.37,93.04,32.14,98,79,5.06,broken clouds,0.0,0.0
361,Placido De Castro,BR,2020-05-07 16:40:33,-10.34,-67.19,67.62,92,100,6.15,overcast clouds,0.0,0.0
362,Dongying,CN,2020-05-07 16:40:33,37.46,118.49,61.5,67,100,13.56,light rain,0.38,0.0
363,Kuusamo,FI,2020-05-07 16:40:33,65.97,29.18,42.8,41,64,12.75,broken clouds,0.0,0.0
364,Villa Bruzual,VE,2020-05-07 16:40:33,9.33,-69.12,91.06,51,98,4.7,light rain,0.62,0.0
365,Ziro,IN,2020-05-07 16:40:34,27.63,93.83,49.62,100,8,1.57,light rain,0.24,0.0
366,Carbonia,IT,2020-05-07 16:40:34,39.17,8.52,80.6,32,20,9.17,few clouds,0.0,0.0
367,Oktyabrskiy,RU,2020-05-07 16:40:34,54.48,53.47,61.11,52,100,6.53,overcast clouds,0.0,0.0
368,Konevo,RU,2020-05-07 16:40:34,62.12,39.32,43.39,93,99,1.83,overcast clouds,0.0,0.0
369,Biloela,AU,2020-05-07 16:40:34,-24.42,150.5,58.42,87,50,4.88,scattered clouds,0.0,0.0
370,Sao Miguel Dos Campos,BR,2020-05-07 16:40:34,-9.78,-36.09,82.4,78,75,8.05,broken clouds,0.0,0.0
371,Lethem,GY,2020-05-07 16:40:34,3.38,-59.8,77.92,88,100,4.14,moderate rain,1.14,0.0
372,Zapolyarnyy,RU,2020-05-07 16:40:35,69.42,30.81,37.4,91,75,36.91,light intensity drizzle,0.0,0.0
373,Vardo,NO,2020-05-07 16:40:35,70.37,31.11,39.2,80,75,19.46,shower rain,0.0,0.0
374,Cayenne,GF,2020-05-07 16:40:00,4.93,-52.33,82.4,78,85,11.41,light rain,0.0,0.0
375,Belo Jardim,BR,2020-05-07 16:37:34,-8.34,-36.42,82.76,59,100,10.54,overcast clouds,0.0,0.0
376,Les Cayes,HT,2020-05-07 16:40:35,18.2,-73.75,85.28,67,38,11.21,scattered clouds,0.0,0.0
377,Whyalla,AU,2020-05-07 16:40:35,-33.03,137.58,53.6,81,0,5.82,clear sky,0.0,0.0
378,Nuuk,GL,2020-05-07 16:37:49,64.18,-51.72,41.0,69,5,12.75,clear sky,0.0,0.0
379,Kosa,RU,2020-05-07 16:40:35,59.94,55.0,61.21,56,94,10.07,overcast clouds,0.0,0.0
380,Laguna,US,2020-05-07 16:40:35,38.42,-121.42,73.0,32,1,10.29,clear sky,0.0,0.0
381,Kisangani,CD,2020-05-07 16:40:36,0.52,25.2,69.8,96,100,1.25,overcast clouds,0.0,0.0
382,Nemuro,JP,2020-05-07 16:40:36,43.32,145.57,37.09,80,0,11.61,clear sky,0.0,0.0
383,Wageningen,NL,2020-05-07 16:40:36,51.97,5.67,69.01,52,90,8.05,overcast clouds,0.0,0.0
384,Nadym,RU,2020-05-07 16:40:36,65.53,72.52,39.22,93,19,11.03,few clouds,0.0,0.0
385,Periyapatti,IN,2020-05-07 16:40:36,10.75,77.27,82.4,78,75,5.82,broken clouds,0.0,0.0
386,Kemijarvi,FI,2020-05-07 16:40:36,66.71,27.43,37.2,80,79,6.08,broken clouds,0.0,0.0
387,Iracoubo,GF,2020-05-07 16:40:36,5.48,-53.2,82.22,74,99,12.37,overcast clouds,0.0,0.0
388,Shache,CN,2020-05-07 16:40:37,38.42,77.24,60.04,51,28,10.22,scattered clouds,0.0,0.0
389,Bonthe,SL,2020-05-07 16:40:37,7.53,-12.51,84.11,77,98,7.96,overcast clouds,0.0,0.0
390,Salinopolis,BR,2020-05-07 16:40:37,-0.61,-47.36,83.41,82,54,9.71,light rain,0.42,0.0
391,Sept-Iles,CA,2020-05-07 16:39:44,50.2,-66.38,46.4,36,40,6.93,scattered clouds,0.0,0.0
392,Kristiinankaupunki,FI,2020-05-07 16:40:37,62.27,21.38,43.47,65,55,10.0,broken clouds,0.0,0.0
393,Zaqatala,AZ,2020-05-07 16:40:37,41.63,46.64,57.2,93,90,4.7,light rain,0.0,0.0
394,Christchurch,NZ,2020-05-07 16:39:37,-43.53,172.63,55.99,86,8,2.24,clear sky,0.0,0.0
395,Port-Cartier,CA,2020-05-07 16:40:37,50.03,-66.87,46.4,36,40,6.93,scattered clouds,0.0,0.0
396,Edd,ER,2020-05-07 16:40:38,13.93,41.69,90.37,58,30,13.22,scattered clouds,0.0,0.0
397,Port Macquarie,AU,2020-05-07 16:40:38,-31.43,152.92,55.99,97,21,4.34,few clouds,0.0,0.0
398,Vao,NC,2020-05-07 16:40:38,-22.67,167.48,71.11,77,100,31.54,light rain,0.73,0.0
399,Novaya Usman,RU,2020-05-07 16:40:38,51.64,39.41,62.6,33,84,8.95,broken clouds,0.0,0.0
400,Sao Joao Da Barra,BR,2020-05-07 16:40:38,-21.64,-41.05,69.8,94,75,16.11,broken clouds,0.0,0.0
401,Homer,US,2020-05-07 16:40:38,59.64,-151.55,50.0,57,90,9.17,overcast clouds,0.0,0.0
402,The Valley,AI,2020-05-07 16:40:38,18.22,-63.06,86.0,66,20,13.87,few clouds,0.0,0.0
403,Pinega,RU,2020-05-07 16:40:38,64.7,43.39,40.01,95,100,4.34,overcast clouds,0.0,0.0
404,Maniitsoq,GL,2020-05-07 16:40:38,65.42,-52.9,38.1,74,88,5.84,overcast clouds,0.0,0.0
405,Kamien Pomorski,PL,2020-05-07 16:40:39,53.97,14.77,57.99,50,75,10.29,broken clouds,0.0,0.0
406,Auki,SB,2020-05-07 16:40:39,-8.77,160.7,78.1,86,21,2.73,few clouds,0.0,0.0
407,Cabras,IT,2020-05-07 16:40:39,39.93,8.53,75.0,36,2,4.0,clear sky,0.0,0.0
408,Lodeynoye Pole,RU,2020-05-07 16:37:16,60.73,33.55,46.65,83,100,4.43,light rain,0.17,0.0
409,Sokode,TG,2020-05-07 16:40:39,8.98,1.13,92.77,46,30,0.67,scattered clouds,0.0,0.0
410,Aswan,EG,2020-05-07 16:40:39,24.09,32.91,85.96,12,0,9.55,clear sky,0.0,0.0
411,Atar,MR,2020-05-07 16:40:39,20.52,-13.05,107.35,7,0,12.3,clear sky,0.0,0.0
412,Jackson,US,2020-05-07 16:40:39,42.42,-122.83,55.0,61,1,0.67,clear sky,0.0,0.0
413,Alofi,NU,2020-05-07 16:37:50,-19.06,-169.92,69.8,100,2,15.37,clear sky,0.0,0.0
414,Faanui,PF,2020-05-07 16:40:40,-16.48,-151.75,81.57,76,74,13.13,broken clouds,0.0,0.0
415,Tessalit,ML,2020-05-07 16:40:40,20.2,1.01,105.08,7,0,10.98,clear sky,0.0,0.0
416,Cap Malheureux,MU,2020-05-07 16:40:40,-19.98,57.61,75.0,92,11,1.01,heavy intensity rain,12.7,0.0
417,Vila Franca Do Campo,PT,2020-05-07 16:40:40,37.72,-25.43,66.2,82,75,10.29,broken clouds,0.0,0.0
418,Aizkraukle,LV,2020-05-07 16:40:40,56.6,25.26,46.99,64,3,14.0,clear sky,0.0,0.0
419,Orai,IN,2020-05-07 16:40:40,25.98,79.47,93.7,18,0,4.92,clear sky,0.0,0.0
420,Linkoping,SE,2020-05-07 16:40:40,58.41,15.62,55.4,32,72,13.87,broken clouds,0.0,0.0
421,Poronaysk,RU,2020-05-07 16:40:41,49.22,143.12,39.85,72,0,1.72,clear sky,0.0,0.0
422,Sorland,NO,2020-05-07 16:40:41,67.67,12.69,37.4,69,20,10.29,shower rain,0.0,0.0
423,Vostok,RU,2020-05-07 16:40:41,46.49,135.88,43.81,61,99,5.59,overcast clouds,0.0,0.0
424,Saint Pete Beach,US,2020-05-07 16:40:41,27.73,-82.74,75.99,49,1,10.29,clear sky,0.0,0.0
425,Amboasary,MG,2020-05-07 16:40:41,-25.03,46.38,73.4,83,20,2.77,few clouds,0.0,0.0
426,Brainerd,US,2020-05-07 16:40:41,46.36,-94.2,50.0,29,1,13.87,clear sky,0.0,0.0
427,Havre-Saint-Pierre,CA,2020-05-07 16:40:41,50.23,-63.6,41.0,60,40,13.87,scattered clouds,0.0,0.0
428,Qaqortoq,GL,2020-05-07 16:40:41,60.72,-46.03,42.64,74,8,7.87,clear sky,0.0,0.0
429,Monte Escobedo,MX,2020-05-07 16:40:41,22.3,-103.58,67.82,37,9,5.48,clear sky,0.0,0.0
430,Sao Jose Da Coroa Grande,BR,2020-05-07 16:40:42,-8.9,-35.15,83.82,71,100,9.24,overcast clouds,0.0,0.0
431,Monastyrishche,RU,2020-05-07 16:40:42,44.19,132.5,50.68,47,98,9.57,overcast clouds,0.0,0.0
432,Ucluelet,CA,2020-05-07 16:40:42,48.93,-125.55,52.0,76,5,2.24,clear sky,0.0,0.0
433,Hofn,IS,2020-05-07 16:40:42,64.25,-15.21,51.8,66,75,13.87,broken clouds,0.0,0.0
434,Chernyshevskiy,RU,2020-05-07 16:40:42,63.01,112.47,22.21,94,99,9.1,overcast clouds,0.0,0.0
435,Sanchez,DO,2020-05-07 16:40:42,19.23,-69.61,87.8,70,40,6.93,scattered clouds,0.0,0.0
436,Springdale,US,2020-05-07 16:40:42,36.19,-94.13,66.0,45,40,6.93,scattered clouds,0.0,0.0
437,Mala,PE,2020-05-07 16:40:29,-12.66,-76.63,73.89,63,97,7.43,overcast clouds,0.0,0.0
438,Gorontalo,ID,2020-05-07 16:40:43,0.54,123.06,76.59,87,9,2.33,clear sky,0.0,0.0
439,Nkawkaw,GH,2020-05-07 16:40:43,6.55,-0.77,85.05,72,76,3.15,moderate rain,1.01,0.0
440,Porto Seguro,BR,2020-05-07 16:39:19,-16.45,-39.06,84.2,70,40,13.87,scattered clouds,0.0,0.0
441,Bandipur,NP,2020-05-07 16:40:43,27.93,84.42,58.6,80,11,4.76,few clouds,0.0,0.0
442,Arlit,NE,2020-05-07 16:40:43,18.74,7.39,100.9,7,0,3.29,clear sky,0.0,0.0
443,Fort Nelson,CA,2020-05-07 16:40:43,58.81,-122.7,48.2,66,75,2.24,broken clouds,0.0,0.0
444,Spassk,RU,2020-05-07 16:40:43,52.75,87.75,47.05,93,91,2.73,light rain,0.13,0.0
445,Savannakhet,LA,2020-05-07 16:40:43,16.57,104.75,86.68,59,24,6.67,few clouds,0.0,0.0
446,Gao,ML,2020-05-07 16:40:44,16.64,1.64,104.47,6,0,17.22,clear sky,0.0,0.0
447,Avera,US,2020-05-07 16:40:44,33.19,-82.53,64.0,33,1,9.17,clear sky,0.0,0.0
448,Plettenberg Bay,ZA,2020-05-07 16:40:44,-34.05,23.37,65.26,62,99,1.41,overcast clouds,0.0,0.0
449,Sesheke,ZM,2020-05-07 16:40:44,-17.48,24.3,71.02,36,15,4.54,few clouds,0.0,0.0
450,Linshui,CN,2020-05-07 16:40:44,36.42,114.2,60.55,92,100,10.09,moderate rain,1.73,0.0
451,Nantucket,US,2020-05-07 16:40:44,41.28,-70.1,54.0,71,40,17.22,scattered clouds,0.0,0.0
452,Nyurba,RU,2020-05-07 16:40:44,63.28,118.33,27.9,89,99,12.68,overcast clouds,0.0,0.0
453,Zhigansk,RU,2020-05-07 16:40:45,66.77,123.37,16.34,94,100,29.71,overcast clouds,0.0,0.0
454,Sinnamary,GF,2020-05-07 16:40:45,5.38,-52.95,82.38,73,89,12.21,overcast clouds,0.0,0.0
455,Ruzomberok,SK,2020-05-07 16:40:45,49.07,19.31,60.8,31,70,16.11,broken clouds,0.0,0.0
456,Yumen,CN,2020-05-07 16:40:45,40.28,97.2,52.12,44,65,17.98,broken clouds,0.0,0.0
457,Yasnyy,RU,2020-05-07 16:40:45,51.03,59.87,59.38,37,6,10.85,clear sky,0.0,0.0
458,Filingue,NE,2020-05-07 16:40:45,14.35,3.32,103.21,6,5,6.15,clear sky,0.0,0.0
459,Okhotsk,RU,2020-05-07 16:40:45,59.38,143.3,31.57,93,0,1.77,clear sky,0.0,0.0
460,Nacala,MZ,2020-05-07 16:40:45,-14.54,40.67,75.36,74,14,12.68,few clouds,0.0,0.0
461,Dandong,CN,2020-05-07 16:40:46,40.13,124.39,56.82,62,98,3.27,overcast clouds,0.0,0.0
462,Ishigaki,JP,2020-05-07 16:40:46,24.34,124.16,75.96,85,23,8.32,few clouds,0.0,0.0
463,Saint-Medard-En-Jalles,FR,2020-05-07 16:40:46,44.9,-0.72,81.0,44,86,10.29,overcast clouds,0.0,0.0
464,Wattegama,LK,2020-05-07 16:40:46,6.8,81.48,78.8,100,20,5.82,few clouds,0.0,0.0
465,Ponta Delgada,PT,2020-05-07 16:40:46,37.73,-25.67,66.2,82,75,10.29,broken clouds,0.0,0.0
466,Port Hedland,AU,2020-05-07 16:40:46,-20.32,118.57,71.6,73,4,3.36,clear sky,0.0,0.0
467,Aketi,CD,2020-05-07 16:40:46,2.74,23.78,74.59,91,100,2.42,overcast clouds,0.0,0.0
468,Nome,US,2020-05-07 16:40:47,64.5,-165.41,23.0,100,90,4.47,fog,0.0,0.0
469,Fukue,JP,2020-05-07 16:40:47,32.69,128.84,64.11,73,35,5.91,scattered clouds,0.0,0.0
470,Revda,RU,2020-05-07 16:40:47,56.8,59.93,69.8,26,8,6.71,clear sky,0.0,0.0
471,Pyay,MM,2020-05-07 16:40:47,18.82,95.22,88.45,49,1,4.9,clear sky,0.0,0.0
472,Whitehorse,CA,2020-05-07 16:37:55,60.72,-135.05,44.01,56,75,16.11,broken clouds,0.0,0.0
473,Flinders,AU,2020-05-07 16:40:47,-34.58,150.86,66.0,83,40,1.01,scattered clouds,0.0,0.0
474,Anicuns,BR,2020-05-07 16:40:48,-16.46,-49.96,74.86,75,100,7.7,overcast clouds,0.0,0.0
475,Pundaguitan,PH,2020-05-07 16:40:48,6.37,126.17,83.28,78,33,7.72,moderate rain,1.45,0.0
476,Smithers,CA,2020-05-07 16:40:48,54.78,-127.17,44.6,70,20,3.36,few clouds,0.0,0.0
477,Lakes Entrance,AU,2020-05-07 16:40:48,-37.88,147.98,48.99,86,0,5.75,clear sky,0.0,0.0
478,Vila Velha,BR,2020-05-07 16:39:16,-20.33,-40.29,71.6,78,75,13.87,broken clouds,0.0,0.0
479,Saint-Augustin,CA,2020-05-07 16:40:48,51.23,-58.65,36.68,96,99,6.49,overcast clouds,0.0,0.0
480,Campeche,MX,2020-05-07 16:40:48,19.0,-90.5,87.4,50,61,5.91,broken clouds,0.0,0.0
481,Aquidauana,BR,2020-05-07 16:38:01,-20.47,-55.79,73.0,28,62,6.58,broken clouds,0.0,0.0
482,Trincomalee,LK,2020-05-07 16:40:48,8.57,81.23,82.29,81,100,10.76,light rain,0.67,0.0
483,Kutum,SD,2020-05-07 16:40:49,14.2,24.67,82.51,15,67,5.48,broken clouds,0.0,0.0
484,Altay,CN,2020-05-07 16:40:49,47.87,88.12,47.82,46,0,4.16,clear sky,0.0,0.0
485,Mino,JP,2020-05-07 16:40:49,34.83,135.47,57.0,94,70,1.99,broken clouds,0.0,0.0
486,Badvel,IN,2020-05-07 16:40:49,14.75,79.05,86.9,59,76,11.39,broken clouds,0.0,0.0
487,Hasaki,JP,2020-05-07 16:39:04,35.73,140.83,48.2,93,20,3.36,few clouds,0.0,0.0
488,Marau,BR,2020-05-07 16:40:49,-28.45,-52.2,63.46,52,16,1.88,few clouds,0.0,0.0
489,Provost,CA,2020-05-07 16:40:49,52.35,-110.27,58.57,46,93,5.79,overcast clouds,0.0,0.0
490,Jaciara,BR,2020-05-07 16:40:49,-15.97,-54.97,67.39,85,100,5.61,overcast clouds,0.0,0.0
491,Sterling,US,2020-05-07 16:40:50,39.01,-77.43,63.0,30,1,12.75,clear sky,0.0,0.0
492,Cape Canaveral,US,2020-05-07 16:40:50,28.41,-80.6,73.99,49,20,17.22,few clouds,0.0,0.0
493,Fonte Boa,BR,2020-05-07 16:40:50,-2.5,-66.27,85.91,72,86,5.23,light rain,0.6,0.0
494,Santa Catalina,PH,2020-05-07 16:40:50,9.33,122.86,81.81,77,8,2.75,clear sky,0.0,0.0
495,Warrington,GB,2020-05-07 16:40:50,53.39,-2.58,70.0,40,12,3.36,light rain,0.2,0.0
496,Zhoucheng,CN,2020-05-07 16:40:50,35.91,116.31,59.61,93,100,12.66,heavy intensity rain,5.56,0.0
497,Cascais,PT,2020-05-07 16:40:50,38.7,-9.42,73.0,64,20,13.87,few clouds,0.0,0.0
498,Uyemskiy,RU,2020-05-07 16:40:51,64.47,40.85,42.8,93,40,6.71,scattered clouds,0.0,0.0
499,Coihaique,CL,2020-05-07 16:40:51,-45.58,-72.07,55.4,93,90,5.82,light intensity shower rain,0.0,0.0
500,Olhao,PT,2020-05-07 16:40:51,37.03,-7.84,71.6,73,20,13.87,few clouds,0.0,0.0
501,Volokonovka,RU,2020-05-07 16:40:51,50.48,37.86,55.17,63,76,5.82,broken clouds,0.0,0.0
502,Changji,CN,2020-05-07 16:40:51,44.02,87.32,59.0,22,0,4.47,clear sky,0.0,0.0
503,Dzaoudzi,YT,2020-05-07 16:40:51,-12.79,45.27,82.4,78,40,14.99,scattered clouds,0.0,0.0
504,Joensuu,FI,2020-05-07 16:40:51,62.6,29.76,50.0,49,37,16.11,light rain,0.11,0.0
505,Igarka,RU,2020-05-07 16:40:52,67.47,86.58,30.47,99,100,5.59,overcast clouds,0.0,0.0
506,Martin,US,2020-05-07 16:40:52,27.08,-80.42,78.01,50,20,13.87,few clouds,0.0,0.0
507,Podosinovets,RU,2020-05-07 16:40:52,60.28,47.07,58.82,82,36,9.64,scattered clouds,0.0,0.0
508,Necochea,AR,2020-05-07 16:40:52,-38.55,-58.74,64.0,51,0,5.01,clear sky,0.0,0.0
509,Wanaka,NZ,2020-05-07 16:36:34,-44.7,169.15,50.13,76,92,4.92,overcast clouds,0.0,0.0
510,San Jose,US,2020-05-07 16:40:06,37.34,-121.89,78.01,37,32,1.01,scattered clouds,0.0,0.0
511,Mogok,MM,2020-05-07 16:40:52,22.92,96.5,69.04,49,0,1.72,clear sky,0.0,0.0
512,Szajol,HU,2020-05-07 16:40:53,47.18,20.3,66.2,66,57,16.11,broken clouds,0.0,0.0
513,Finale Emilia,IT,2020-05-07 16:40:53,44.83,11.29,75.2,36,0,7.0,clear sky,0.0,0.0
514,Cerrito,CO,2020-05-07 16:40:53,6.84,-72.69,78.8,61,75,2.24,broken clouds,0.0,0.0
515,Fairbanks,US,2020-05-07 16:40:53,64.84,-147.72,48.99,56,75,4.7,broken clouds,0.0,0.0
516,Peleduy,RU,2020-05-07 16:40:53,59.63,112.74,32.65,94,99,2.86,overcast clouds,0.0,0.0
517,Narodychi,UA,2020-05-07 16:40:53,51.2,29.08,48.11,85,99,5.75,light rain,0.32,0.0
518,Dunedin,NZ,2020-05-07 16:38:03,-45.87,170.5,54.0,84,100,1.99,overcast clouds,0.0,0.0
519,Westlock,CA,2020-05-07 16:40:54,54.15,-113.87,57.2,47,75,5.82,broken clouds,0.0,0.0
520,Concarneau,FR,2020-05-07 16:40:54,47.88,-3.92,71.6,60,100,5.82,overcast clouds,0.0,0.0
521,Ochakiv,UA,2020-05-07 16:40:54,46.61,31.55,50.0,71,20,13.42,few clouds,0.0,0.0
522,Babati,TZ,2020-05-07 16:40:54,-4.22,35.75,63.0,92,62,2.86,light rain,0.13,0.0
523,Caborca,MX,2020-05-07 16:40:54,30.58,-111.1,91.0,27,0,7.0,clear sky,0.0,0.0
524,Lysva,RU,2020-05-07 16:40:54,58.11,57.81,58.86,59,71,3.98,broken clouds,0.0,0.0
525,Saint-Francois,FR,2020-05-07 16:40:54,46.42,3.91,73.4,38,95,6.93,overcast clouds,0.0,0.0
526,Rio Gallegos,AR,2020-05-07 16:40:55,-51.62,-69.22,51.8,76,100,4.7,overcast clouds,0.0,0.0
527,Tres Arroyos,AR,2020-05-07 16:40:55,-38.37,-60.28,61.12,41,12,12.77,few clouds,0.0,0.0
528,Christiana,ZA,2020-05-07 16:40:55,-27.91,25.16,60.46,29,0,3.36,clear sky,0.0,0.0
529,Hindaun,IN,2020-05-07 16:40:55,26.72,77.02,93.33,18,42,10.51,scattered clouds,0.0,0.0
530,Viedma,AR,2020-05-07 16:40:55,-40.81,-63.0,66.4,32,60,16.26,broken clouds,0.0,0.0
531,Sinjar,IQ,2020-05-07 16:40:55,36.32,41.88,67.82,53,12,2.17,few clouds,0.0,0.0
532,Awbari,LY,2020-05-07 16:40:56,26.59,12.78,92.68,10,0,10.58,clear sky,0.0,0.0
533,Devonport,AU,2020-05-07 16:36:45,-41.17,146.35,57.99,83,80,5.99,broken clouds,0.0,0.0
534,Samarai,PG,2020-05-07 16:40:56,-10.62,150.67,79.16,79,49,16.93,scattered clouds,0.0,0.0
535,Petropavlovsk-Kamchatskiy,RU,2020-05-07 16:40:56,53.05,158.65,28.4,79,2,2.24,clear sky,0.0,0.0
536,Nouadhibou,MR,2020-05-07 16:40:56,20.93,-17.03,75.2,60,0,19.46,sand,0.0,0.0
537,Dabat,ET,2020-05-07 16:40:56,12.98,37.77,68.97,41,56,5.79,broken clouds,0.0,0.0
538,Hidalgotitlan,MX,2020-05-07 16:40:56,17.78,-94.63,84.2,70,20,9.15,few clouds,0.0,0.0
539,Cintalapa,MX,2020-05-07 16:40:56,16.7,-93.73,85.78,51,26,10.76,scattered clouds,0.0,0.0
540,Karratha,AU,2020-05-07 16:38:04,-20.74,116.85,71.1,79,36,3.83,scattered clouds,0.0,0.0
541,Menongue,AO,2020-05-07 16:40:57,-14.66,17.69,63.82,51,0,3.98,clear sky,0.0,0.0
542,Lashio,MM,2020-05-07 16:40:57,22.93,97.75,71.33,63,0,2.1,clear sky,0.0,0.0
543,Lyambir,RU,2020-05-07 16:40:57,54.28,45.12,56.07,95,100,9.19,overcast clouds,0.0,0.0
544,Taft,IR,2020-05-07 16:40:57,31.75,54.21,84.2,10,0,13.87,clear sky,0.0,0.0
545,Batticaloa,LK,2020-05-07 16:40:57,7.71,81.69,81.32,81,100,11.65,overcast clouds,0.0,0.0
546,Grand-Santi,GF,2020-05-07 16:40:57,4.25,-54.38,75.85,94,100,1.72,light rain,0.19,0.0
547,La Rioja,ES,2020-05-07 16:40:57,42.25,-2.5,77.0,47,99,11.41,overcast clouds,0.0,0.0
548,Tombouctou,ML,2020-05-07 16:40:58,20.0,-3.0,108.81,7,57,5.79,broken clouds,0.0,0.0
549,Palmer,US,2020-05-07 16:38:21,42.16,-72.33,61.0,24,75,12.75,broken clouds,0.0,0.0
550,Dossor,KZ,2020-05-07 16:40:58,47.53,52.98,77.0,31,44,13.42,scattered clouds,0.0,0.0
551,Carutapera,BR,2020-05-07 16:40:58,-1.2,-46.02,86.18,72,47,9.33,light rain,0.21,0.0
552,Estevan,CA,2020-05-07 16:40:58,49.13,-102.98,46.4,26,20,20.8,few clouds,0.0,0.0
553,Cesenatico,IT,2020-05-07 16:37:04,44.2,12.4,68.0,40,0,9.17,clear sky,0.0,0.0
554,Linguere,SN,2020-05-07 16:40:58,15.4,-15.12,110.79,6,0,10.67,clear sky,0.0,0.0
555,Dauphin,CA,2020-05-07 16:40:58,51.15,-100.05,41.0,30,1,10.29,clear sky,0.0,0.0
556,Planovskoye,RU,2020-05-07 16:40:58,43.4,44.19,57.2,100,100,2.24,overcast clouds,0.0,0.0
557,Natal,BR,2020-05-07 16:40:59,-5.79,-35.21,87.8,58,40,13.87,scattered clouds,0.0,0.0
558,Kihurio,TZ,2020-05-07 16:40:59,-4.47,38.07,71.33,82,24,4.45,few clouds,0.0,0.0
559,Raudeberg,NO,2020-05-07 16:40:59,61.99,5.14,46.0,90,71,22.06,light rain,0.51,0.0
560,Laela,TZ,2020-05-07 16:40:59,-8.57,32.05,62.78,92,84,5.14,broken clouds,0.0,0.0
561,Jinxi,CN,2020-05-07 16:40:59,30.43,116.29,74.17,87,74,2.28,broken clouds,0.0,0.0
562,Vasai,IN,2020-05-07 16:40:59,19.47,72.8,86.0,79,75,6.93,haze,0.0,0.0
563,Kasama,ZM,2020-05-07 16:40:59,-10.21,31.18,62.83,86,48,4.99,scattered clouds,0.0,0.0
564,Itarema,BR,2020-05-07 16:40:59,-2.92,-39.92,85.39,72,26,12.26,scattered clouds,0.0,0.0
565,Tarko-Sale,RU,2020-05-07 16:41:00,64.92,77.78,35.01,81,100,19.44,moderate rain,1.02,0.0
566,Qianan,CN,2020-05-07 16:41:00,44.99,124.06,62.15,35,99,15.43,overcast clouds,0.0,0.0
567,Itacare,BR,2020-05-07 16:41:00,-14.28,-39.0,86.0,74,20,6.93,few clouds,0.0,0.0
568,Porto Novo,BJ,2020-05-07 16:41:00,6.5,2.6,89.6,75,40,13.87,scattered clouds,0.0,0.0
569,Pacific Grove,US,2020-05-07 16:41:00,36.62,-121.92,61.0,72,1,6.93,haze,0.0,0.0
570,Francavilla Al Mare,IT,2020-05-07 16:41:00,42.42,14.29,66.2,45,0,6.93,clear sky,0.0,0.0
571,Kavaratti,IN,2020-05-07 16:41:01,10.57,72.64,85.78,71,19,7.76,few clouds,0.0,0.0
572,Suez,EG,2020-05-07 16:36:22,29.97,32.53,79.93,21,0,8.93,clear sky,0.0,0.0
573,Vanimo,PG,2020-05-07 16:41:01,-2.67,141.3,79.95,83,89,2.35,moderate rain,1.3,0.0
